{"type":"FeatureCollection","features":[{"type":"Feature","id":1,"geometry":{"type":"Point","coordinates":[-122.2062777565455,47.881404542335488]},"properties":{"OBJECTID_1":1,"address":"12815 Bothell-Everett Hwy.","citystatez":"Everett, WA 98208","district":"Everett","name":"SILVER LAKE ELEMENTARY","name2":"Silver Lake Elementary School","objectid":22}},{"type":"Feature","id":2,"geometry":{"type":"Point","coordinates":[-122.24365895610315,47.912078886730129]},"properties":{"OBJECTID_1":2,"address":"9600 Holly Dr.","citystatez":"Everett, WA 98204","district":"Mukilteo","name":"CHALLENGER ELEMENTARY SCHOOL","name2":"Challenger Elementary School","objectid":5}},{"type":"Feature","id":3,"geometry":{"type":"Point","coordinates":[-122.21223975291534,47.970796265815252]},"properties":{"OBJECTID_1":3,"address":"3516 Rucker Ave.","citystatez":"Everett, WA 98201","district":"Everett","name":"SEQUOIA HIGH SCHOOL","name2":"Sequoia High School","objectid":19}},{"type":"Feature","id":4,"geometry":{"type":"Point","coordinates":[-122.24770509839855,47.911813290574514]},"properties":{"OBJECTID_1":4,"address":"9600 Sharon Dr.","citystatez":"Everett, WA 98204","district":"Mukilteo","name":"EXPLORER MIDDLE SCHOOL","name2":"Explorer Middle School","objectid":16}},{"type":"Feature","id":5,"geometry":{"type":"Point","coordinates":[-122.21308358088588,47.970804928217142]},"properties":{"OBJECTID_1":5,"address":"3516 Rucker Ave.","citystatez":"Everett, WA 98201","district":"Everett","name":"HOMESCHOOL ALTERNATIVE CENTER","name2":"Homeschool Alternative Center","objectid":43}},{"type":"Feature","id":6,"geometry":{"type":"Point","coordinates":[-122.2083644477291,47.954626132455687]},"properties":{"OBJECTID_1":6,"address":"4730 Colby Ave.","citystatez":"Everett, WA 98203","district":"Everett","name":"EVERETT SCHOOL DISTRICT ADMIN","name2":"Everett School District Admin","objectid":35}},{"type":"Feature","id":7,"geometry":{"type":"Point","coordinates":[-122.27053214945576,47.916928351374189]},"properties":{"OBJECTID_1":7,"address":"9001 Airport Rd.","citystatez":"Everett, WA 98204","district":"Mukilteo","name":"SNO-ISLE TECH SKILLS CENTER","name2":"Sno-Isle TECH Skills Center","objectid":28}},{"type":"Feature","id":8,"geometry":{"type":"Point","coordinates":[-122.21024791394426,47.984190083398389]},"properties":{"OBJECTID_1":8,"address":"2508 Hoyt Ave.","citystatez":"Everett, WA 98201","district":"Private","name":"IMMACULATE CONCEPTION SCHOOL","name2":"Immaculate Conception School","objectid":17}},{"type":"Feature","id":9,"geometry":{"type":"Point","coordinates":[-122.26455680591742,47.945615286362255]},"properties":{"OBJECTID_1":9,"address":"5700 23rd Dr W","citystatez":"Everett, WA, 98203","district":"Private","name":"NORTHSHORE CHRISTIAN ACADEMY","name2":"Northshore Christian Academy","objectid":25}},{"type":"Feature","id":10,"geometry":{"type":"Point","coordinates":[-122.1906938647433,47.987854214754954]},"properties":{"OBJECTID_1":10,"address":"2215 Pine St.","citystatez":"Everett, WA 98201","district":"Everett","name":"GARFIELD ELEMENTARY SCHOOL","name2":"Garfield Elementary School","objectid":7}},{"type":"Feature","id":11,"geometry":{"type":"Point","coordinates":[-122.2002311083332,47.90444116763183]},"properties":{"OBJECTID_1":11,"address":"10200 25th Ave. SE","citystatez":"Everett, WA 98208","district":"Everett","name":"EISENHOWER MIDDLE SCHOOL","name2":"Eisenhower Middle School","objectid":6}},{"type":"Feature","id":12,"geometry":{"type":"Point","coordinates":[-122.1958921448996,48.002117774895105]},"properties":{"OBJECTID_1":12,"address":"1110 Poplar St.","citystatez":"Everett, WA 98201","district":"Everett","name":"HAWTHORNE ELEMENTARY SCHOOL","name2":"Hawthorne Elementary School","objectid":2}},{"type":"Feature","id":13,"geometry":{"type":"Point","coordinates":[-122.19972436598646,47.983958297595564]},"properties":{"OBJECTID_1":13,"address":"2514 Rainier Ave.","citystatez":"Everett, WA 98201","district":"Everett","name":"NORTH MIDDLE SCHOOL","name2":"North Middle School","objectid":9}},{"type":"Feature","id":14,"geometry":{"type":"Point","coordinates":[-122.20437307122501,48.00671661231501]},"properties":{"OBJECTID_1":14,"address":"801 Wetmore Ave.","citystatez":"Everett, WA 98201","district":"State","name":"EVERETT COMMUNITY COLLEGE","name2":"Everett Community College","objectid":21}},{"type":"Feature","id":15,"geometry":{"type":"Point","coordinates":[-122.21921937521203,47.963097387219293]},"properties":{"OBJECTID_1":15,"address":"4120 Federal Ave","citystatez":"Everett, Wa 98203","district":"Private","name":"FOREST PARK ADVENTIST CHRISTIAN SCHOOL","name2":"Forest Park Adventist Christian School","objectid":59}},{"type":"Feature","id":16,"geometry":{"type":"Point","coordinates":[-122.21307377936782,47.970633314596689]},"properties":{"OBJECTID_1":16,"address":"3516 Rucker Ave.","citystatez":"Everett, WA 98201","district":"Everett","name":"ONLINE HIGH SCHOOL","name2":"Online High School","objectid":44}},{"type":"Feature","id":17,"geometry":{"type":"Point","coordinates":[-122.22649373385516,47.926988770594335]},"properties":{"OBJECTID_1":17,"address":"7621 Beverly Ln.","citystatez":"Everett, WA 98203","district":"Everett","name":"EVERGREEN MIDDLE SCHOOL","name2":"Evergreen Middle School","objectid":4}},{"type":"Feature","id":18,"geometry":{"type":"Point","coordinates":[-122.24425067009261,47.912875496622455]},"properties":{"OBJECTID_1":18,"address":"9401 Sharon Drive","citystatez":"Everett, WA 98204","district":"Mukilteo","name":"MUKILTEO SCHOOL DISTRICT ADMIN","name2":"Mukilteo School District Admin","objectid":57}},{"type":"Feature","id":19,"geometry":{"type":"Point","coordinates":[-122.24438554045442,47.910083513680149]},"properties":{"OBJECTID_1":19,"address":"9700 Holly Dr.","citystatez":"Everett, WA 98204","district":"Mukilteo","name":"ACES ALTERNATIVE","name2":"Aces Alternative High School","objectid":27}},{"type":"Feature","id":20,"geometry":{"type":"Point","coordinates":[-122.20191189485736,47.951238643244075]},"properties":{"OBJECTID_1":20,"address":"5010 View Dr.","citystatez":"Everett, WA 98203","district":"Everett","name":"LOWELL ELEMENTARY SCHOOL","name2":"Lowell Elementary School","objectid":15}},{"type":"Feature","id":21,"geometry":{"type":"Point","coordinates":[-122.22354612155777,47.919104164389076]},"properties":{"OBJECTID_1":21,"address":"8702 7th Ave. SE","citystatez":"Everett, WA 98208","district":"Everett","name":"EMERSON ELEMENTARY SCHOOL","name2":"Emerson Elementary School","objectid":12}},{"type":"Feature","id":22,"geometry":{"type":"Point","coordinates":[-122.22892302631844,47.952024772256749]},"properties":{"OBJECTID_1":22,"address":"202 Alder St.","citystatez":"Everett, WA 98203","district":"Everett","name":"VIEW RIDGE ELEMENTARY SCHOOL","name2":"View Ridge Elementary School","objectid":11}},{"type":"Feature","id":23,"geometry":{"type":"Point","coordinates":[-122.22204806044726,47.919993836920774]},"properties":{"OBJECTID_1":23,"address":"8615 7th Ave SE","citystatez":"Everett, WA 98208","district":"Private","name":"MARY MAGDALENE ELEMENTARY SCHOOL","name2":"Mary Magdalene Elementary School","objectid":24}},{"type":"Feature","id":24,"geometry":{"type":"Point","coordinates":[-122.19527066613153,47.899004493854108]},"properties":{"OBJECTID_1":24,"address":"10901 27th Ave. SE","citystatez":"Everett, WA 98208","district":"Everett","name":"JAMES MONROE ELEMENTARY","name2":"James Monroe Elementary School","objectid":23}},{"type":"Feature","id":25,"geometry":{"type":"Point","coordinates":[-122.19759642865662,48.005074165844903]},"properties":{"OBJECTID_1":25,"address":"915 N Broadway","citystatez":"Everett, WA 98201","district":"State","name":"WASHINGTON STATE UNIVERSITY EVERETT","name2":"WSU Everett","objectid":60}},{"type":"Feature","id":26,"geometry":{"type":"Point","coordinates":[-122.21836345142617,47.967720417460733]},"properties":{"OBJECTID_1":26,"address":"3700 Federal Ave.","citystatez":"Everett, WA 98201","district":"Everett","name":"JACKSON ELEMENTARY SCHOOL","name2":"Jackson Elementary School","objectid":10}},{"type":"Feature","id":27,"geometry":{"type":"Point","coordinates":[-122.22395745563482,47.941250357040339]},"properties":{"OBJECTID_1":27,"address":"616 Pecks Dr.","citystatez":"Everett, WA 98203","district":"Everett","name":"MADISON ELEMENTARY SCHOOL","name2":"Madison Elementary School","objectid":3}},{"type":"Feature","id":28,"geometry":{"type":"Point","coordinates":[-122.20931466497538,47.985242508568533]},"properties":{"OBJECTID_1":28,"address":"2416 Colby Ave.","citystatez":"Everett, WA 98201","district":"Everett","name":"EVERETT HIGH SCHOOL","name2":"Everett High School","objectid":20}},{"type":"Feature","id":29,"geometry":{"type":"Point","coordinates":[-122.20431346620926,48.005260296434713]},"properties":{"OBJECTID_1":29,"address":"916 Oakes Ave.","citystatez":"Everett, WA 98201","district":"Everett","name":"WHITTIER ELEMENTARY SCHOOL","name2":"Whittier Elementary School","objectid":1}},{"type":"Feature","id":30,"geometry":{"type":"Point","coordinates":[-122.24200410124632,47.922217518781295]},"properties":{"OBJECTID_1":30,"address":"525 W Casino Rd.","citystatez":"Everett, WA 98204","district":"Mukilteo","name":"COMMUNITY BASED TRANSITION CENTER","name2":"Community Based Transition Center","objectid":55}},{"type":"Feature","id":31,"geometry":{"type":"Point","coordinates":[-122.1930493848605,47.98761740345364]},"properties":{"OBJECTID_1":31,"address":"2221 Cedar St.","citystatez":"Everett, WA 98201","district":"Private","name":"EVERETT CHRISTIAN SCHOOL","name2":"Everett Christian School","objectid":18}},{"type":"Feature","id":32,"geometry":{"type":"Point","coordinates":[-122.22296268464537,47.92439347716266]},"properties":{"OBJECTID_1":32,"address":"801 E. Casino Rd.","citystatez":"Everett, WA 98203","district":"Everett","name":"CASCADE HIGH SCHOOL","name2":"Cascade High School","objectid":26}},{"type":"Feature","id":33,"geometry":{"type":"Point","coordinates":[-122.23705541080518,47.920584604814792]},"properties":{"OBJECTID_1":33,"address":"222 W Casino Rd.","citystatez":"Everett, WA 98204","district":"Mukilteo","name":"HORIZON ELEMENTARY SCHOOL","name2":"Horizon Elementary School","objectid":8}}]}